{"landmarks":[{"lon":99.955425,"lat":12.57099,"name":"ตลาดโต้รุ่ง","kind":"bus"},{"lon":99.95905,"lat":12.558219,"name":"มาร์เก็ตวิลเลจ","kind":"bus"},{"lon":99.961929,"lat":12.550417,"name":"Hua Hin Busterminal","kind":"bus"},{"lon":99.96458,"lat":12.532827,"name":"หนองแก","kind":"rail"},{"lon":99.955171,"lat":12.564624,"name":"หัวหิน","kind":"rail"},{"lon":99.956789,"lat":12.56787,"name":"โผน กิ่งเพชร","kind":"monument"},{"lon":99.944734,"lat":12.566308,"name":"พระบาทสมเด็จพระปกเกล้าเจ้าอยู่หัว รัชกาลที","kind":"monument"},{"lon":99.938481,"lat":12.555609,"name":"มหาวิทยาลัยเทคโนโลยีราชมงคลรัตนโกสินทร์ วิ","kind":"uni"},{"lon":99.95923,"lat":12.557661,"name":"Hua Hin Market Village","kind":"mall"},{"lon":99.961636,"lat":12.547985,"name":"Blúport Hua Hin","kind":"mall"},{"lon":99.946654,"lat":12.566635,"name":"จุดชมวิว 5","kind":"sight"},{"lon":99.954572,"lat":12.567066,"name":"Old Steamlocomotive","kind":"sight"},{"lon":99.943691,"lat":12.565483,"name":"จุดชมวิวเขาหินเหล็กไฟ","kind":"sight"},{"lon":99.935001,"lat":12.58804,"name":"Elephant Village","kind":"sight"},{"lon":99.945402,"lat":12.562411,"name":"จุดชมวิว 3","kind":"sight"},{"lon":99.949597,"lat":12.607149,"name":"พิพิธภัณฑ์ภาพวาด 4 มิติ","kind":"sight"},{"lon":99.956096,"lat":12.571065,"name":"ตลาดฉัตรศิลา","kind":"market"},{"lon":99.959912,"lat":12.532756,"name":"ตลาดนัดหัวนา","kind":"market"},{"lon":99.947123,"lat":12.5854,"name":"ตลาดใหม่ไดโนเสาร์","kind":"market"},{"lon":99.951286,"lat":12.575704,"name":"ตลาดนัดแพไม้","kind":"market"},{"lon":99.966242,"lat":12.534432,"name":"Cicada Market","kind":"market"},{"lon":99.95331,"lat":12.560999,"name":"ตลาดนัดบ่อนไก่","kind":"market"},{"lon":99.942181,"lat":12.58158,"name":"ตลาดนัดไดโนเสาร์เก่า","kind":"market"},{"lon":99.960615,"lat":12.554068,"name":"โรงพยาบาลกรุงเทพ","kind":"hospital"},{"lon":99.959144,"lat":12.563775,"name":"โรงพยาบาลซานเปาโล","kind":"hospital"},{"lon":99.948118,"lat":12.607646,"name":"โรงพยาบาลหัวหิน","kind":"hospital"},{"lon":99.940671,"lat":12.57094,"name":"วัดสุขสำราญ","kind":"temple"},{"lon":99.958635,"lat":12.561023,"name":"โบสถ์คาทอลิก นักบุญเทเรซา","kind":"temple"},{"lon":99.964486,"lat":12.537242,"name":"วัดหนองแก","kind":"temple"},{"lon":99.948698,"lat":12.548586,"name":"วัดสะพานขี้เหล็ก","kind":"temple"},{"lon":99.933749,"lat":12.53976,"name":"วัดป่าเขาหินเทิน","kind":"temple"},{"lon":99.953693,"lat":12.543481,"name":"Orthodox Christian Church","kind":"temple"}]}