{"landmarks":[{"lon":100.900201,"lat":12.93342,"name":"AC Bus to North East","kind":"bus"},{"lon":100.898094,"lat":12.932806,"name":"Mini-bus to Don Muang Airport","kind":"bus"},{"lon":100.903224,"lat":12.933717,"name":"Rayong, Koh Chang, Trat, Minibus","kind":"bus"},{"lon":100.896958,"lat":12.948417,"name":"Phuket VIP","kind":"bus"},{"lon":100.86919,"lat":12.896398,"name":"Minibus to Bangkok","kind":"bus"},{"lon":100.892523,"lat":12.935882,"name":"บริษัท ศรีมงคลขนส่ง","kind":"bus"},{"lon":100.909418,"lat":12.940201,"name":"พัทยา","kind":"rail"},{"lon":100.866132,"lat":12.921948,"name":"อนุสาวรีย์กรมหลวงชุมพรเขตอุดมศักดิ์","kind":"monument"},{"lon":100.870014,"lat":12.901099,"name":"รูปปั้นมัจฉานุ","kind":"monument"},{"lon":100.868655,"lat":12.914185,"name":"Big Buddha Hill Temple","kind":"monument"},{"lon":100.864725,"lat":12.92467,"name":"Pattaya Rotary International Peace City","kind":"monument"},{"lon":100.875497,"lat":12.927839,"name":"Serene Plaza","kind":"mall"},{"lon":100.880812,"lat":12.931899,"name":"Mike Shopping Mall","kind":"mall"},{"lon":100.890005,"lat":12.945679,"name":"Central Marina Outlet","kind":"mall"},{"lon":100.878152,"lat":12.929304,"name":"Royal Garden Plaza","kind":"mall"},{"lon":100.881359,"lat":12.92937,"name":"The Avenue","kind":"mall"},{"lon":100.87867,"lat":12.923646,"name":"Tukcom","kind":"mall"},{"lon":100.894492,"lat":12.935238,"name":"Big C Place","kind":"mall"},{"lon":100.883501,"lat":12.934622,"name":"Central Pattaya","kind":"mall"},{"lon":100.889137,"lat":12.948067,"name":"Focus Pattaya Shopping Arcade","kind":"mall"},{"lon":100.89742,"lat":12.882252,"name":"The Village Shopping Centre","kind":"mall"},{"lon":100.907208,"lat":12.955288,"name":"Bottle Art Museum","kind":"sight"},{"lon":100.883141,"lat":12.906244,"name":"Kids ATV's","kind":"sight"},{"lon":100.878571,"lat":12.928761,"name":"Ripley's Believe it or not","kind":"sight"},{"lon":100.907308,"lat":12.9349,"name":"International Snake Show","kind":"sight"},{"lon":100.885038,"lat":12.946648,"name":"Teddy Bear Museum","kind":"sight"},{"lon":100.895429,"lat":12.951785,"name":"Parody Art Museum","kind":"sight"},{"lon":100.863164,"lat":12.906274,"name":"พัทยาปาร์คทาวเวอร์","kind":"sight"},{"lon":100.896087,"lat":12.896759,"name":"Underwater world","kind":"sight"},{"lon":100.90008,"lat":12.929072,"name":"The bottle museum","kind":"sight"},{"lon":100.880389,"lat":12.884188,"name":"Real-diver","kind":"sight"},{"lon":100.866082,"lat":12.922263,"name":"จุดชมวิวเมืองพัทยา","kind":"sight"},{"lon":100.864446,"lat":12.925658,"name":"ป้าย Pattaya City","kind":"sight"},{"lon":100.86473,"lat":12.9135,"name":"Market","kind":"market"},{"lon":100.906809,"lat":12.895066,"name":"Primo Market","kind":"market"},{"lon":100.888363,"lat":12.947382,"name":"ตลาดหงตุลา","kind":"market"},{"lon":100.879432,"lat":12.931401,"name":"Windy Plaza","kind":"market"},{"lon":100.884509,"lat":12.932322,"name":"Pattaya Night Bazaar","kind":"market"},{"lon":100.879853,"lat":12.924622,"name":"Bua Khao Market","kind":"market"},{"lon":100.892668,"lat":12.916819,"name":"Duck Square","kind":"market"},{"lon":100.893007,"lat":12.908394,"name":"Thepprasit Night Market","kind":"market"},{"lon":100.872929,"lat":12.898508,"name":"Rom Pho Market","kind":"market"},{"lon":100.874597,"lat":12.891742,"name":"Jomtien Night Market","kind":"market"},{"lon":100.905503,"lat":12.953802,"name":"โรงพยาบาลกรุงเทพพัทยา","kind":"hospital"},{"lon":100.90639,"lat":12.966329,"name":"โรงพยาบาลบางละมุง","kind":"hospital"},{"lon":100.897175,"lat":12.912607,"name":"Jomtien Hospital","kind":"hospital"}]}